$GPGGA,135219.642,5126.320,N,00528.156,E,1,12,1.0,0.0,M,0.0,M,,*6F
$GPGSA,A,3,01,02,03,04,05,06,07,08,09,10,11,12,1.0,1.0,1.0*30
$GPRMC,135219.642,A,5126.320,N,00528.156,E,038.9,274.1,010317,000.0,W*7D
$GPGGA,135220.642,5126.321,N,00528.139,E,1,12,1.0,0.0,M,0.0,M,,*6D
$GPGSA,A,3,01,02,03,04,05,06,07,08,09,10,11,12,1.0,1.0,1.0*30
$GPRMC,135220.642,A,5126.321,N,00528.139,E,038.9,274.1,010317,000.0,W*7F
$GPGGA,135221.642,5126.322,N,00528.122,E,1,12,1.0,0.0,M,0.0,M,,*65
$GPGSA,A,3,01,02,03,04,05,06,07,08,09,10,11,12,1.0,1.0,1.0*30
$GPRMC,135221.642,A,5126.322,N,00528.122,E,038.9,274.1,010317,000.0,W*77
$GPGGA,135222.642,5126.324,N,00528.105,E,1,12,1.0,0.0,M,0.0,M,,*65
$GPGSA,A,3,01,02,03,04,05,06,07,08,09,10,11,12,1.0,1.0,1.0*30
$GPRMC,135222.642,A,5126.324,N,00528.105,E,038.9,274.1,010317,000.0,W*77
$GPGGA,135223.642,5126.325,N,00528.087,E,1,12,1.0,0.0,M,0.0,M,,*6E
$GPGSA,A,3,01,02,03,04,05,06,07,08,09,10,11,12,1.0,1.0,1.0*30
$GPRMC,135223.642,A,5126.325,N,00528.087,E,038.9,274.1,010317,000.0,W*7C
$GPGGA,135224.642,5126.326,N,00528.070,E,1,12,1.0,0.0,M,0.0,M,,*62
$GPGSA,A,3,01,02,03,04,05,06,07,08,09,10,11,12,1.0,1.0,1.0*30
$GPRMC,135224.642,A,5126.326,N,00528.070,E,038.9,274.6,010317,000.0,W*77
$GPGGA,135225.642,5126.327,N,00528.053,E,1,12,1.0,0.0,M,0.0,M,,*63
$GPGSA,A,3,01,02,03,04,05,06,07,08,09,10,11,12,1.0,1.0,1.0*30
$GPRMC,135225.642,A,5126.327,N,00528.053,E,038.9,274.6,010317,000.0,W*76
$GPGGA,135226.642,5126.329,N,00528.036,E,1,12,1.0,0.0,M,0.0,M,,*6D
$GPGSA,A,3,01,02,03,04,05,06,07,08,09,10,11,12,1.0,1.0,1.0*30
$GPRMC,135226.642,A,5126.329,N,00528.036,E,038.9,274.6,010317,000.0,W*78
$GPGGA,135227.642,5126.330,N,00528.019,E,1,12,1.0,0.0,M,0.0,M,,*69
$GPGSA,A,3,01,02,03,04,05,06,07,08,09,10,11,12,1.0,1.0,1.0*30
$GPRMC,135227.642,A,5126.330,N,00528.019,E,038.9,274.6,010317,000.0,W*7C
$GPGGA,135228.642,5126.332,N,00528.002,E,1,12,1.0,0.0,M,0.0,M,,*6E
$GPGSA,A,3,01,02,03,04,05,06,07,08,09,10,11,12,1.0,1.0,1.0*30
$GPRMC,135228.642,A,5126.332,N,00528.002,E,038.9,274.6,010317,000.0,W*7B
$GPGGA,135229.642,5126.333,N,00527.984,E,1,12,1.0,0.0,M,0.0,M,,*66
$GPGSA,A,3,01,02,03,04,05,06,07,08,09,10,11,12,1.0,1.0,1.0*30
$GPRMC,135229.642,A,5126.333,N,00527.984,E,038.9,274.6,010317,000.0,W*73
$GPGGA,135230.642,5126.334,N,00527.967,E,1,12,1.0,0.0,M,0.0,M,,*64
$GPGSA,A,3,01,02,03,04,05,06,07,08,09,10,11,12,1.0,1.0,1.0*30
$GPRMC,135230.642,A,5126.334,N,00527.967,E,038.9,274.6,010317,000.0,W*71
$GPGGA,135231.642,5126.336,N,00527.950,E,1,12,1.0,0.0,M,0.0,M,,*63
$GPGSA,A,3,01,02,03,04,05,06,07,08,09,10,11,12,1.0,1.0,1.0*30
$GPRMC,135231.642,A,5126.336,N,00527.950,E,038.9,274.6,010317,000.0,W*76
$GPGGA,135232.642,5126.337,N,00527.933,E,1,12,1.0,0.0,M,0.0,M,,*64
$GPGSA,A,3,01,02,03,04,05,06,07,08,09,10,11,12,1.0,1.0,1.0*30
$GPRMC,135232.642,A,5126.337,N,00527.933,E,038.9,274.6,010317,000.0,W*71
$GPGGA,135233.642,5126.339,N,00527.916,E,1,12,1.0,0.0,M,0.0,M,,*6C
$GPGSA,A,3,01,02,03,04,05,06,07,08,09,10,11,12,1.0,1.0,1.0*30
$GPRMC,135233.642,A,5126.339,N,00527.916,E,038.9,272.0,010317,000.0,W*79
$GPGGA,135234.642,5126.339,N,00527.898,E,1,12,1.0,0.0,M,0.0,M,,*6C
$GPGSA,A,3,01,02,03,04,05,06,07,08,09,10,11,12,1.0,1.0,1.0*30
$GPRMC,135234.642,A,5126.339,N,00527.898,E,038.9,279.4,010317,000.0,W*76
$GPGGA,135235.642,5126.342,N,00527.882,E,1,12,1.0,0.0,M,0.0,M,,*6A
$GPGSA,A,3,01,02,03,04,05,06,07,08,09,10,11,12,1.0,1.0,1.0*30
$GPRMC,135235.642,A,5126.342,N,00527.882,E,038.9,279.4,010317,000.0,W*70
$GPGGA,135236.642,5126.345,N,00527.865,E,1,12,1.0,0.0,M,0.0,M,,*67
$GPGSA,A,3,01,02,03,04,05,06,07,08,09,10,11,12,1.0,1.0,1.0*30
$GPRMC,135236.642,A,5126.345,N,00527.865,E,038.9,279.4,010317,000.0,W*7D
$GPGGA,135237.642,5126.347,N,00527.848,E,1,12,1.0,0.0,M,0.0,M,,*6B
$GPGSA,A,3,01,02,03,04,05,06,07,08,09,10,11,12,1.0,1.0,1.0*30
$GPRMC,135237.642,A,5126.347,N,00527.848,E,038.9,279.4,010317,000.0,W*71
$GPGGA,135238.642,5126.350,N,00527.831,E,1,12,1.0,0.0,M,0.0,M,,*6C
$GPGSA,A,3,01,02,03,04,05,06,07,08,09,10,11,12,1.0,1.0,1.0*30
$GPRMC,135238.642,A,5126.350,N,00527.831,E,038.9,279.4,010317,000.0,W*76
$GPGGA,135239.642,5126.353,N,00527.815,E,1,12,1.0,0.0,M,0.0,M,,*68
$GPGSA,A,3,01,02,03,04,05,06,07,08,09,10,11,12,1.0,1.0,1.0*30
$GPRMC,135239.642,A,5126.353,N,00527.815,E,038.9,279.4,010317,000.0,W*72
